{"type":"FeatureCollection","features":[{"type":"Feature","properties":{"Name":"Hotel Bloom"},"geometry":{"type":"Point","coordinates":[4.366335868835449,50.854854470851556]}},{"type":"Feature","properties":{"Name":"Rue Royale & Chaussee de Haecht"},"geometry":{"type":"Point","coordinates":[4.3665611743927,50.85470546514866]}},{"type":"Feature","properties":{"Name":"X Rue de Beughem"},"geometry":{"type":"Point","coordinates":[4.368487000465392,50.85841353375924]}},{"type":"Feature","properties":{"Name":"Rue des Palais & Av de la Reine"},"geometry":{"type":"Point","coordinates":[4.366684556007385,50.86432890129096]}},{"type":"Feature","properties":{"Name":"Rue des Palais"},"geometry":{"type":"Point","coordinates":[4.3619585037231445,50.871821074240394]}},{"type":"Feature","properties":{"Name":"Palais & Reine"},"geometry":{"type":"Point","coordinates":[4.360445737838745,50.8723424007038]}},{"type":"Feature","properties":{"Name":"Claessens & Reine"},"geometry":{"type":"Point","coordinates":[4.359587430953979,50.87339180642133]}},{"type":"Feature","properties":{"Name":"Claessens & Palais Outre-Ponts"},"geometry":{"type":"Point","coordinates":[4.360129237174988,50.87364230622835]}},{"type":"Feature","properties":{"Name":"Palais Outre-Ponts"},"geometry":{"type":"Point","coordinates":[4.360869526863098,50.87650264775004]}},{"type":"Feature","properties":{"Name":"Palais Outre-Ponts toward N277"},"geometry":{"type":"Point","coordinates":[4.356942772865295,50.87819169006211]}},{"type":"Feature","properties":{"Name":"N277"},"geometry":{"type":"Point","coordinates":[4.356277585029602,50.87800891088216]}},{"type":"Feature","properties":{"Name":"Palais de Laeken"},"geometry":{"type":"Point","coordinates":[4.3560951948165885,50.88858184597686]}},{"type":"Feature","properties":{},"geometry":{"type":"LineString","coordinates":[[4.366550445556641,50.854746103114834],[4.368492364883423,50.858457554720644],[4.366700649261475,50.86434921608552],[4.364662170410156,50.870835954419256],[4.360381364822388,50.872393178943796],[4.359587430953979,50.873442583518035],[4.360166788101196,50.87369308305216],[4.359952211380005,50.8739503514425],[4.359984397888184,50.87448519434051],[4.360402822494507,50.8754059221665],[4.3608856201171875,50.8765364968945],[4.359909296035767,50.87700361257727],[4.358911514282227,50.877254092971405],[4.358353614807129,50.87743687511199],[4.356969594955444,50.87819507485499],[4.356304407119751,50.8780258349104],[4.3562185764312735,50.878215383607035],[4.356551170349121,50.878675712946034],[4.355177879333496,50.880767446337664],[4.3543946743011475,50.88298769490466],[4.354158639907837,50.88529582895721],[4.354791641235352,50.88755647110693],[4.3560791015625,50.88863260652272]]}}]}